ward_name,population,households,lat,lng,ward_type
Chinhat,3400,680,26.86,80.94,rural
Kakori,2800,560,26.88,80.8,rural
Sarojini Nagar,4100,820,26.82,80.98,urban
Alambagh,3900,780,26.78,80.92,urban
Gomti Nagar,4500,900,26.87,80.98,urban
Hazratganj,3200,640,26.85,80.94,urban
Chowk,3600,720,26.84,80.92,urban
Mahanagar,3800,760,26.83,80.96,urban
Rajajipuram,4200,840,26.8,80.9,urban
Indiranagar,4000,800,26.87,80.96,urban
